{
"type": "FeatureCollection",
"name": "BD_SINIESTROS_2023_2025_COMUNA_BARRIO_OBRERO",
"crs": { "type": "name", "properties": { "name": "urn:ogc:def:crs:OGC:1.3:CRS84" } },
"features": [
{ "type": "Feature", "properties": { "ID": 8078, "X": 1062096.866, "Y": 872912.5872, "Codigo": "<Null>", "Fecha": "2023-03-30T00:00:00", "Año": 2023, "dia_sem": 4, "Tipo_Confi": "Daños", "direccion": "Calle 24 Con Carrera 12", "No_Vehicul": 2, "Tipo_de_Ve": "AUTOMOVIL,MOTOCICLETA", "comuna": 9, "nombre": "Comuna 9", "id_barrio": 910, "barrio": "Barrio Obrero" }, "geometry": { "type": "Point", "coordinates": [ -76.518687016379417, 3.446753146030932 ] } },
{ "type": "Feature", "properties": { "ID": 8114, "X": 1062083.877, "Y": 872988.5461, "Codigo": "AI002280", "Fecha": "2024-01-25T00:00:00", "Año": 2024, "dia_sem": 4, "Tipo_Confi": "Lesiones", "direccion": "CALLE 24 CARRERA 11 D", "No_Vehicul": 2, "Tipo_de_Ve": "AUTOMOVIL,AUTOMOVIL", "comuna": 9, "nombre": "Comuna 9", "id_barrio": 910, "barrio": "Barrio Obrero" }, "geometry": { "type": "Point", "coordinates": [ -76.518803502206652, 3.447440106192707 ] } },
{ "type": "Feature", "properties": { "ID": 8116, "X": 1062120.509, "Y": 873000.7406, "Codigo": "AI003940", "Fecha": "2024-03-01T00:00:00", "Año": 2024, "dia_sem": 5, "Tipo_Confi": "Daños", "direccion": "CARRERA 11 d CALLE 24", "No_Vehicul": 2, "Tipo_de_Ve": "CAMIONETA,MOTOCICLETA", "comuna": 9, "nombre": "Comuna 9", "id_barrio": 910, "barrio": "Barrio Obrero" }, "geometry": { "type": "Point", "coordinates": [ -76.518473790169196, 3.447550185934968 ] } },
{ "type": "Feature", "properties": { "ID": 8139, "X": 1061914.9, "Y": 872953.3, "Codigo": "AI022812", "Fecha": "2025-05-31T00:00:00", "Año": 2025, "dia_sem": 6, "Tipo_Confi": "Daños", "direccion": "CALLE 22 A CARRERA 11 D", "No_Vehicul": 2, "Tipo_de_Ve": "AUTOMOVIL,AUTOMOVIL", "comuna": 9, "nombre": "Comuna 9", "id_barrio": 910, "barrio": "Barrio Obrero" }, "geometry": { "type": "Point", "coordinates": [ -76.520324294794094, 3.447122272778368 ] } },
{ "type": "Feature", "properties": { "ID": 8166, "X": 1061994.902, "Y": 872974.7277, "Codigo": "AI015076", "Fecha": "2024-12-06T00:00:00", "Año": 2024, "dia_sem": 5, "Tipo_Confi": "Lesiones", "direccion": "CALLE 23  , CARRERA 11 D", "No_Vehicul": 2, "Tipo_de_Ve": "MOTOCICLETA,AUTOMOVIL", "comuna": 9, "nombre": "Comuna 9", "id_barrio": 910, "barrio": "Barrio Obrero" }, "geometry": { "type": "Point", "coordinates": [ -76.519604252090431, 3.447315618769469 ] } },
{ "type": "Feature", "properties": { "ID": 8179, "X": 1062101.1, "Y": 872992.8, "Codigo": "AI020503", "Fecha": "2025-04-08T00:00:00", "Año": 2025, "dia_sem": 2, "Tipo_Confi": "Lesiones", "direccion": "CALLE 24 , CARRERA 11 D", "No_Vehicul": 2, "Tipo_de_Ve": "CAMIONETA,MOTOCICLETA", "comuna": 9, "nombre": "Comuna 9", "id_barrio": 910, "barrio": "Barrio Obrero" }, "geometry": { "type": "Point", "coordinates": [ -76.518648491721891, 3.447478482586185 ] } },
{ "type": "Feature", "properties": { "ID": 8292, "X": 1062147.848, "Y": 873099.5021, "Codigo": "<Null>", "Fecha": "2023-02-08T00:00:00", "Año": 2023, "dia_sem": 3, "Tipo_Confi": "Lesiones", "direccion": "Calle 25 Carrera 11B", "No_Vehicul": 2, "Tipo_de_Ve": "CAMION,MOTOCICLETA", "comuna": 9, "nombre": "Comuna 9", "id_barrio": 910, "barrio": "Barrio Obrero" }, "geometry": { "type": "Point", "coordinates": [ -76.51822724749546, 3.448443134428444 ] } },
{ "type": "Feature", "properties": { "ID": 8297, "X": 1062148.723, "Y": 873104.7952000001, "Codigo": "<Null>", "Fecha": "2023-03-03T00:00:00", "Año": 2023, "dia_sem": 5, "Tipo_Confi": "Lesiones", "direccion": "Calle 25 Con Carrera 11B-08", "No_Vehicul": 2, "Tipo_de_Ve": null, "comuna": 9, "nombre": "Comuna 9", "id_barrio": 910, "barrio": "Barrio Obrero" }, "geometry": { "type": "Point", "coordinates": [ -76.518219345483118, 3.4484909949283 ] } },
{ "type": "Feature", "properties": { "ID": 8311, "X": 1062149.691, "Y": 873116.9121, "Codigo": "<Null>", "Fecha": "2023-06-20T00:00:00", "Año": 2023, "dia_sem": 2, "Tipo_Confi": "Lesiones", "direccion": "Calle 25 Con Carrera 11B", "No_Vehicul": 2, "Tipo_de_Ve": null, "comuna": 9, "nombre": "Comuna 9", "id_barrio": 910, "barrio": "Barrio Obrero" }, "geometry": { "type": "Point", "coordinates": [ -76.518210570512935, 3.448600562096455 ] } },
{ "type": "Feature", "properties": { "ID": 8318, "X": 1061954.933, "Y": 873121.9927, "Codigo": "<Null>", "Fecha": "2023-03-30T00:00:00", "Año": 2023, "dia_sem": 4, "Tipo_Confi": "Lesiones", "direccion": "CLINICA CRISTO REY", "No_Vehicul": 2, "Tipo_de_Ve": "MOTOCICLETA", "comuna": 9, "nombre": "Comuna 9", "id_barrio": 910, "barrio": "Barrio Obrero" }, "geometry": { "type": "Point", "coordinates": [ -76.519963153484213, 3.448647538194167 ] } },
{ "type": "Feature", "properties": { "ID": 8346, "X": 1061876.0, "Y": 873136.9, "Codigo": "AI019451", "Fecha": "2025-03-18T00:00:00", "Año": 2025, "dia_sem": 2, "Tipo_Confi": "Lesiones", "direccion": "CALLE 22 A , CARRERA 11", "No_Vehicul": 2, "Tipo_de_Ve": "CAMIONETA,AUTOMOVIL", "comuna": 9, "nombre": "Comuna 9", "id_barrio": 910, "barrio": "Barrio Obrero" }, "geometry": { "type": "Point", "coordinates": [ -76.520673386210461, 3.448782761524467 ] } },
{ "type": "Feature", "properties": { "ID": 8367, "X": 1061948.802, "Y": 873150.8182, "Codigo": "<Null>", "Fecha": "2023-03-18T00:00:00", "Año": 2023, "dia_sem": 6, "Tipo_Confi": "Lesiones", "direccion": "Calle 23 Con Carrera 11", "No_Vehicul": 2, "Tipo_de_Ve": "AUTOMOVIL,MOTOCICLETA", "comuna": 9, "nombre": "Comuna 9", "id_barrio": 910, "barrio": "Barrio Obrero" }, "geometry": { "type": "Point", "coordinates": [ -76.520018173977064, 3.448908237775663 ] } },
{ "type": "Feature", "properties": { "ID": 8368, "X": 1061948.802, "Y": 873150.8182, "Codigo": "<Null>", "Fecha": "2023-09-24T00:00:00", "Año": 2023, "dia_sem": 7, "Tipo_Confi": "Lesiones", "direccion": "Calle 23 Con Carrera 11", "No_Vehicul": 2, "Tipo_de_Ve": "AUTOMOVIL,MOTOCICLETA", "comuna": 9, "nombre": "Comuna 9", "id_barrio": 910, "barrio": "Barrio Obrero" }, "geometry": { "type": "Point", "coordinates": [ -76.520018173977064, 3.448908237775663 ] } },
{ "type": "Feature", "properties": { "ID": 8380, "X": 1061968.6, "Y": 873157.6, "Codigo": "<Null>", "Fecha": "2023-01-12T00:00:00", "Año": 2023, "dia_sem": 5, "Tipo_Confi": "Mortal", "direccion": "CL 23 KR 11", "No_Vehicul": 1, "Tipo_de_Ve": "PEATÓN,MOTOCICLETA", "comuna": 9, "nombre": "Comuna 9", "id_barrio": 910, "barrio": "Barrio Obrero" }, "geometry": { "type": "Point", "coordinates": [ -76.519839977736197, 3.44896946033612 ] } },
{ "type": "Feature", "properties": { "ID": 8411, "X": 1062048.992, "Y": 873178.9463, "Codigo": "AI009372", "Fecha": "2024-07-17T00:00:00", "Año": 2024, "dia_sem": 3, "Tipo_Confi": "Lesiones", "direccion": "CARRERA 11  , CALLE 24", "No_Vehicul": 2, "Tipo_de_Ve": "AUTOMOVIL,MOTOCICLETA", "comuna": 9, "nombre": "Comuna 9", "id_barrio": 910, "barrio": "Barrio Obrero" }, "geometry": { "type": "Point", "coordinates": [ -76.519116424396799, 3.449162067546474 ] } }
]
}
